{"id": 13609,  "name": "UFACFloresta",                                "municipality": "Cruzeiro do Sul",      "latitude": -7.558718,  "longitude": -72.71672  }
{"id": 25499,  "name": "MPAC_SNG_01_promotoria",                      "municipality": "Senador Guiomard",     "latitude": -10.15301,  "longitude": -67.73822  }
{"id": 25501,  "name": "MPAC_CZS_02_ciosp",                           "municipality": "Cruzeiro do Sul",      "latitude": -7.61497,   "longitude": -72.67337  }
{"id": 25503,  "name": "MPAC_SRP_01_prefeitura",                      "municipality": "Santa Rosa do Purus",  "latitude": -9.43934,   "longitude": -70.489265 }
{"id": 25521,  "name": "MPAC_ABR_02_SEMSA",                           "municipality": "Assis Brasil",         "latitude": -10.940578, "longitude": -69.56782  }
{"id": 25531,  "name": "MPAC_MNL_01_promotoria",                      "municipality": "Mâncio Lima",          "latitude": -7.61302,   "longitude": -72.90297  }
{"id": 25541,  "name": "MPAC_PTA_01_Sec.infraestrutura",              "municipality": "Porto Acre",           "latitude": -9.72708,   "longitude": -67.69802  } 
{"id": 25549,  "name": "MPAC",                                        "municipality": "Rio Branco",           "latitude": -9.972758,  "longitude": -67.80798  }
{"id": 25551,  "name": "MPAC_FIJ_01_promotoria",                      "municipality": "Feijó",                "latitude": -8.170079,  "longitude": -70.35503  }
{"id": 25891,  "name": "MPAC_BJR_01_promotoria",                      "municipality": "Bujari",               "latitude": -9.829177,  "longitude": -67.95388  }
{"id": 27841,  "name": "MPAC_BRL_01_promotoria",                      "municipality": "Brasiléia",            "latitude": -11.010512, "longitude": -68.74228  }
{"id": 31089,  "name": "MPAC_CZS_01_promotoria",                      "municipality": "Cruzeiro do Sul",      "latitude": -7.630234,  "longitude": -72.66575  }
{"id": 31091,  "name": "MPAC_TRC_02_ifac",                            "municipality": "Tarauacá",             "latitude": -8.143146,  "longitude": -70.770905 }
{"id": 31095,  "name": "MPAC_SNM_02_promotoria",                      "municipality": "Sena Madureira",       "latitude": -9.063847,  "longitude": -68.65999  }
{"id": 31097,  "name": "MPAC_BRL_02_radio fm 90.3",                   "municipality": "Brasiléia",            "latitude": -11.016145, "longitude": -68.744286 }
{"id": 31099,  "name": "MPAC_PTW_01_prefeitura",                      "municipality": "Porto Walter",         "latitude": -8.2667,    "longitude": -72.7425   }
{"id": 31101,  "name": "MPAC_EPL_02_escola.joao.pedro",               "municipality": "Epitaciolândia",       "latitude": -11.023759, "longitude": -68.74114  }
{"id": 31103,  "name": "MPAC_SNM_01_ifac",                            "municipality": "Sena Madureira",       "latitude": -9.082038,  "longitude": -68.680214 }
{"id": 31105,  "name": "MPAC_ABR_01_promotoria",                      "municipality": "Assis Brasil",         "latitude": -10.939974, "longitude": -69.56391  }
{"id": 31107,  "name": "MPAC_PLC_01_promotoria",                      "municipality": "Plácido de Castro",    "latitude": -10.327738, "longitude": -67.18768  }
{"id": 31109,  "name": "Ministério Público do Estado do Acre (SEDE)", "municipality": "Rio Branco",           "latitude": -9.972646,  "longitude": -67.80796  }
{"id": 31111,  "name": "MPAC_JRD_01_prefeitura",                      "municipality": "Jordão",               "latitude": -9.190853,  "longitude": -71.9512   }
{"id": 31115,  "name": "MPAC_RDA_01_prefeitura",                      "municipality": "Rodrigues Alves",      "latitude": -7.738155,  "longitude": -72.65364  }
{"id": 31117,  "name": "MPAC_EPL_01_camara",                          "municipality": "Epitaciolândia",       "latitude": -11.02846,  "longitude": -68.73796  }
{"id": 56663,  "name": "MPAC_CPX_01_qpm",                             "municipality": "Capixaba",             "latitude": -10.571155, "longitude": -67.67535  }
{"id": 56879,  "name": "MPAC_XAP_02_promotoria",                      "municipality": "Xapuri",               "latitude": -10.6568,   "longitude": -68.49916  }
{"id": 57171,  "name": "MPAC_MTH_01_semec",                           "municipality": "Marechal Thaumaturgo", "latitude": -8.949645,  "longitude": -72.785934 }
{"id": 57177,  "name": "MPAC_ACL_01_promotoria",                      "municipality": "Acrelândia",           "latitude": -10.07734,  "longitude": -67.05071  }
{"id": 57309,  "name": "MPAC_MNU_01_promotoria",                      "municipality": "Manoel Urbano",        "latitude": -8.837846,  "longitude": -69.26315  }
{"id": 151650, "name": "AcreBioClima - UFAC",                         "municipality": "Rio Branco",           "latitude": -9.957616,  "longitude": -67.86898  }